Name	Latitude	 Longitude	Date	Line
Soyosan	37.948611	127.060833	2006	Line 1
Dongducheon	37.927913	127.054771	2006	Line 1
Bosan	37.913745	127.05725	2006	Line 1
Dongducheonjungang	37.902385	127.056279	2006	Line 1
Jihaeng	37.892222	127.055556	2006	Line 1
Deokjeong	37.844397	127.061364	2006	Line 1
Deokgye	37.818726	127.056434	2007	Line 1
Yangju	37.774444	127.044722	2006	Line 1
Nogyang	37.758889	127.041944	2006	Line 1
Ganeung	37.748333	127.044167	2006	Line 1
Uijeongbu	37.738056	127.046111	1986	Line 1
Hoeryong	37.723611	127.047778	1986	Line 1
Mangwolsa	37.710278	127.0475	1986	Line 1
Dobongsan	37.689444	127.045833	1986	Line 1
Dobong	37.679167	127.045278	1986	Line 1
Banghak	37.667222	127.044167	1986	Line 1
Chang-dong	37.6525	127.046944	1986	Line 1
Nokcheon	37.644722	127.050833	1985	Line 1
Wolgye	37.631667	127.058056	1985	Line 1
Seongbuk	37.623056	127.061389	1985	Line 1
Seokgye	37.614722	127.065278	1985	Line 1
Sinimun	37.6025	127.0675	1980	Line 1
HankukUniversity	37.595	127.062778	1980	Line 1
Hoegi	37.589167	127.057222	1980	Line 1
Cheongnyangni	37.58	127.045	1974	Line 1
Jegi-dong	37.577778	127.034722	1974	Line 1
Sinseol-dong	37.574444	127.022778	1974	Line 1
Dongmyo	37.572963	127.015622	1974	Line 1
Dongdaemun	37.570556	127.008333	1974	Line 1
Jongno5-ga	37.570833	127.001944	1974	Line 1
Jongno3-ga	37.57	126.991667	1974	Line 1
Jonggak	37.570278	126.983056	1974	Line 1
CityHall	37.564722	126.976944	1974	Line 1
SeoulStation	37.555023	126.972449	1974	Line 1
Namyeong	37.540556	126.971389	1984	Line 1
Yongsan	37.53	126.964722	1984	Line 1
Noryangjin	37.514444	126.942778	1984	Line 1
Daebang	37.513333	126.926389	1984	Line 1
Singil	37.516944	126.9175	1998	Line 1
Yeongdeungpo	37.515556	126.907778	1984	Line 1
Sindorim	37.509167	126.891111	1984	Line 1
Guro	37.503056	126.882222	1974	Line 1
Guil	37.496111	126.869722	1995	Line 1
Gaebong	37.494626	126.858471	1974	Line 1
Oryu-dong	37.49452	126.845307	1974	Line 1
Onsu	37.492171	126.822712	1988	Line 1
Yeokgok	37.485117	126.811586	1974	Line 1
Sosa	37.482712	126.795241	1997	Line 1
Bucheon	37.484036	126.783063	1974	Line 1
Jung-dong	37.486573	126.764792	1987	Line 1
Songnae	37.487616	126.753505	1974	Line 1
Bugae	37.488442	126.74099	1996	Line 1
Bupyeong	37.489591	126.723387	1974	Line 1
Baegun	37.483572	126.707602	1984	Line 1
Dongam	37.471346	126.702892	1974	Line 1
Ganseok	37.464729	126.694164	1994	Line 1
Juan	37.464942	126.679997	1974	Line 1
Dohwa	37.466049	126.668774	2001	Line 1
Jemulpo	37.466783	126.6568	1974	Line 1
Dowon	37.468675	126.642314	1994	Line 1
Dongincheon	37.475153	126.632864	1974	Line 1
Incheon	37.475883	126.616708	1975	Line 1
GasanDigitalComplex	37.480465	126.88304	1979	Line 1
Doksan	37.465556	126.889722	1998	Line 1
Geumcheon-guOffice	37.455556	126.894167	1979	Line 1
Seoksu	37.434444	126.9025	1979	Line 1
Gwanak	37.418889	126.909167	1979	Line 1
Anyang	37.402222	126.9225	1979	Line 1
Myeonghak	37.385	126.935556	1979	Line 1
Geumjeong	37.3725	126.943333	1988	Line 1
Gunpo	37.353611	126.948611	1979	Line 1
Uiwang	37.321111	126.948333	1979	Line 1
SungkyunkwanUniversity	37.300278	126.972222	1979	Line 1
Hwaseo	37.285	126.988889	1979	Line 1
Suwon	37.266111	126.999722	1979	Line 1
Seryu	37.244167	127.014167	2003	Line 1
Byeongjeom	37.206667	127.033056	2003	Line 1
Sema	37.1875	127.043333	2005	Line 1
OsanCollege	37.169444	127.063056	2005	Line 1
Osan	37.145556	127.067222	2005	Line 1
Jinwi	37.110278	127.070278	2006	Line 1
Songtan	37.075278	127.054167	2005	Line 1
Seojeong-ri	37.056389	127.053889	2005	Line 1
Jije	37.018889	127.070278	2006	Line 1
Pyeongtaek	37.99	127.086944	2005	Line 1
Seonghwan	36.915556	127.127778	2005	Line 1
Jiksan	36.870833	127.143889	2005	Line 1
Dujeong	36.833889	127.149167	2005	Line 1
Cheonan	36.80956	127.146621	2005	Line 1
Bongmyeong	36.801141	127.135527	2008	Line 1
Ssangyong	36.793792	127.121197	2008	Line 1
Cheonan-Asan	36.794383	127.104522	2008	Line 1
Baebang	36.778441	127.054782	2008	Line 1
Onyangoncheon	36.780556	127.003333	2008	Line 1
Sinchang	36.769628	126.950811	2008	Line 1
CityHall	37.564722	126.976944	1984	Line 2
Euljiro1-ga	37.566111	126.9825	1983	Line 2
Euljiro3-ga	37.566294	126.992781	1983	Line 2
Euljiro4-ga	37.566667	126.998056	1983	Line 2
DongdaemunStadium	37.565	127.007778	1983	Line 2
Sindang	37.565331	127.016217	1983	Line 2
Sangwangsimni	37.564167	127.029444	1983	Line 2
Wangsimni	37.561667	127.037778	1983	Line 2
HanyangUniversity	37.555278	127.043611	1983	Line 2
Ttukseom	37.547222	127.0475	1983	Line 2
Seongsu	37.544444	127.056111	1980	Line 2
KonkukUniversity	37.539933	127.070607	1980	Line 2
Guui	37.538056	127.085833	1980	Line 2
Gangbyeon	37.535	127.094722	1980	Line 2
Seongnae	37.520278	127.103889	1980	Line 2
Jamsil	37.513333	127.100278	1980	Line 2
Sincheon	37.511389	127.086111	1980	Line 2
SportsComplex	37.511111	127.073611	1980	Line 2
Samseong	37.508744	127.063519	1982	Line 2
Seolleung	37.50445	127.048986	1982	Line 2
Yeoksam	37.500786	127.036886	1982	Line 2
Gangnam	37.497928	127.027583	1982	Line 2
SeoulNatlUnivofEduc	37.493611	127.013611	1982	Line 2
Seocho	37.491944	127.008056	1983	Line 2
Bangbae	37.481389	126.997778	1983	Line 2
Sadang	37.476389	126.981667	1983	Line 2
Nakseongdae	37.476944	126.963889	1983	Line 2
SeoulNationalUniversity	37.481111	126.952778	1983	Line 2
Bongcheon	37.4825	126.941944	1984	Line 2
Sillim	37.484167	126.929722	1984	Line 2
Sindaebang	37.487222	126.913056	1984	Line 2
GuroDigitalComplex	37.485278	126.901389	1984	Line 2
Daerim	37.493333	126.895	1984	Line 2
Sindorim	37.509167	126.891111	1984	Line 2
Mullae	37.518889	126.895	1984	Line 2
Yeongdeungpo-guOffice	37.524039	126.89622	1984	Line 2
Dangsan	37.534444	126.902222	1984	Line 2
Hapjeong	37.549167	126.913611	1984	Line 2
HongikUniversity	37.556667	126.923611	1984	Line 2
Sinchon	37.555278	126.936944	1984	Line 2
EwhaWomansUniversity	37.556667	126.945833	1984	Line 2
Ahyeon	37.557411	126.956158	1984	Line 2
Chungjeongno	37.56	126.963611	1984	Line 2
CityHall	37.564722	126.976944	1984	Line 2
Yongdap	37.561895	127.050903	1983	Line 2
Sindap	37.570038	127.046451	1983	Line 2
Yongdu	37.573996	127.038093	2005	Line 2
Sinseol-dong	37.574444	127.022778	1980	Line 2
Dorimcheon	37.514444	126.882778	1992	Line 2
Yangcheon-guOffice	37.512222	126.865556	1992	Line 2
Sinjeongnegeori	37.52	126.852778	1996	Line 2
Kkachisan	37.531667	126.846667	1996	Line 2
Daehwa	37.676111	126.7475	1996	Line 3
Juyeop	37.670158	126.761244	1996	Line 3
Jeongbalsan	37.659675	126.773292	1996	Line 3
Madu	37.652143	126.777624	1996	Line 3
Baekseok	37.643024	126.787961	1996	Line 3
Daegok	37.630875	126.810533	1996	Line 3
Hwajeong	37.634553	126.832668	1996	Line 3
Wondang	37.653332	126.843059	1996	Line 3
Samsong	37.653052	126.895657	1996	Line 3
Jichuk	37.647989	126.913912	1990	Line 3
Gupabal	37.636762	126.918815	1985	Line 3
Yeonsinnae	37.618825	126.921358	1985	Line 3
Bulgwang	37.610913	126.929496	1985	Line 3
Nokbeon	37.600959	126.93566	1985	Line 3
Hongje	37.588693	126.9442	1985	Line 3
Muakjae	37.582312	126.950299	1985	Line 3
Dongnimmun	37.57437	126.958002	1985	Line 3
Gyeongbokgung	37.575752	126.973549	1985	Line 3
Anguk	37.576496	126.985431	1985	Line 3
Jongno3-ga	37.57	126.991667	1985	Line 3
Euljiro3-ga	37.566294	126.992781	1985	Line 3
Chungmuro	37.56127	126.994314	1985	Line 3
DonggukUniversity	37.559067	127.005435	1985	Line 3
Yaksu	37.554759	127.010611	1985	Line 3
Geumho	37.547993	127.015858	1985	Line 3
Oksu	37.54061	127.01888	1985	Line 3
Apgujeong	37.527077	127.028443	1985	Line 3
Sinsa	37.516279	127.020053	1985	Line 3
Jamwon	37.51287	127.011352	1985	Line 3
ExpressBusTerminal	37.504913	127.004909	1985	Line 3
SeoulNatlUnivofEduc	37.493611	127.013611	1985	Line 3
NambuBusTerminal	37.484986	127.016249	1985	Line 3
Yangjae	37.484522	127.033904	1985	Line 3
Maebong	37.48708	127.046971	1993	Line 3
Dogok	37.490868	127.055351	1993	Line 3
Daechi	37.494554	127.063445	1993	Line 3
Hangnyeoul	37.496567	127.070183	1993	Line 3
Daecheong	37.493588	127.079512	1993	Line 3
Irwon	37.4837	127.084372	1993	Line 3
Suseo	37.487305	127.101619	1993	Line 3
Danggogae	37.669583	127.079367	1993	Line 4
Sanggye	37.661057	127.073434	1985	Line 4
Nowon	37.65636	127.063553	1985	Line 4
Chang-dong	37.6525	127.046944	1985	Line 4
Ssangmun	37.648656	127.03473	1985	Line 4
Suyu	37.638041	127.02568	1985	Line 4
Mia	37.626477	127.026072	1985	Line 4
Miasamgeori	37.613165	127.030052	1985	Line 4
Gireum	37.603323	127.024956	1985	Line 4
SungshinWomensUniv	37.592595	127.016319	1985	Line 4
HansungUniversity	37.588472	127.006202	1985	Line 4
Hyehwa	37.582176	127.001873	1985	Line 4
Dongdaemun	37.570556	127.008333	1985	Line 4
DongdaemunStadium	37.565	127.007778	1985	Line 4
Chungmuro	37.56127	126.994314	1985	Line 4
Myeong-dong	37.560925	126.986396	1985	Line 4
Hoehyeon	37.558523	126.978242	1985	Line 4
SeoulStation	37.555023	126.972449	1985	Line 4
SookmyungWomensUniv	37.544577	126.9721	1985	Line 4
Samgakji	37.535543	126.973956	1985	Line 4
Sinyongsan	37.529157	126.967884	1985	Line 4
Ichon	37.52254	126.97316	1985	Line 4
Dongjak	37.502713	126.980367	1985	Line 4
Isu-ChongshinUniversity	37.485394	126.982158	1985	Line 4
Sadang	37.476389	126.981667	1985	Line 4
Namtaeryeong	37.463856	126.989143	1994	Line 4
Seonbawi	37.451712	127.002291	1994	Line 4
SeoulRacecoursePark	37.443701	127.007908	1994	Line 4
SeoulGrandPark	37.435659	127.006545	1994	Line 4
Gwacheon	37.432963	126.996256	1994	Line 4
GovernmentComplexGwacheon	37.426501	126.989653	1994	Line 4
Indeogwon	37.401631	126.976724	1993	Line 4
Pyeongchon	37.394297	126.963847	1993	Line 4
Beomgye	37.38965	126.950614	1993	Line 4
Geumjeong	37.3725	126.943333	1988	Line 4
Sanbon	37.358049	126.933095	1988	Line 4
Surisan	37.349605	126.925306	1988	Line 4
Daeyami	37.328545	126.91734	1988	Line 4
Banwol	37.31218	126.903484	1988	Line 4
Sangnoksu	37.302797	126.866448	1988	Line 4
HanyangUniv-Ansan	37.309772	126.853581	1988	Line 4
Jungang	37.315958	126.838642	1988	Line 4
Gojan	37.316817	126.823128	1988	Line 4
Gongdan	37.320299	126.806265	1988	Line 4
Ansan	37.327163	126.788562	1985	Line 4
SingilOncheon	37.338513	126.765302	1985	Line 4
Jeongwang	37.351631	126.743098	1985	Line 4
Oido	37.362163	126.737782	2000	Line 4
Banghwa	37.5775	126.812778	1996	Line 5
Gaehwasan	37.572222	126.806111	1996	Line 5
GimpoAirport	37.5625	126.800833	1996	Line 5
Songjeong	37.561111	126.811944	1996	Line 5
Magok	37.560224	126.824734	1996	Line 5
Balsan	37.558611	126.837222	1996	Line 5
Ujangsan	37.548889	126.836389	1996	Line 5
Hwagok	37.541667	126.840278	1996	Line 5
Kkachisan	37.531667	126.846667	1996	Line 5
Sinjeong	37.525018	126.856256	1996	Line 5
Mok-dong	37.52609	126.864828	1996	Line 5
Omokgyo	37.524512	126.875144	1996	Line 5
Yangpyeong	37.525579	126.886109	1996	Line 5
Yeongdeungpo-guOffice	37.524039	126.89622	1996	Line 5
YeongdeungpoMarket	37.522686	126.90505	1996	Line 5
Singil	37.516944	126.9175	1996	Line 5
Yeouido	37.521661	126.924271	1996	Line 5
Yeouinaru	37.527124	126.93294	1996	Line 5
Mapo	37.539545	126.945906	1996	Line 5
Gongdeok	37.543876	126.95098	1996	Line 5
Aeogae	37.553454	126.956667	1996	Line 5
Chungjeongno	37.56	126.963611	1996	Line 5
Seodaemun	37.565637	126.9665	1996	Line 5
Gwanghwamun	37.571594	126.976574	1996	Line 5
Jongno3-ga	37.57	126.991667	1996	Line 5
Euljiro4-ga	37.566667	126.998056	1996	Line 5
DongdaemunStadium	37.565	127.007778	1996	Line 5
Cheonggu	37.560211	127.013755	1996	Line 5
Singeumho	37.554555	127.020455	1996	Line 5
Haengdang	37.557434	127.029666	1996	Line 5
Wangsimni	37.561667	127.037778	1995	Line 5
Majang	37.5661	127.042905	1995	Line 5
Dapsimni	37.566823	127.052642	1995	Line 5
Janghanpyeong	37.56144	127.064588	1995	Line 5
Gunja	37.557124	127.079469	1995	Line 5
Achasan	37.552161	127.08949	1995	Line 5
Gwangnaru	37.545326	127.103459	1995	Line 5
Cheonho	37.538517	127.123767	1995	Line 5
Gangdong	37.535904	127.132244	1995	Line 5
Gil-dong	37.538371	127.14021	1995	Line 5
Gubeundari	37.545492	127.142866	1995	Line 5
Myeongil	37.551535	127.144008	1995	Line 5
Godeok	37.55504	127.154168	1995	Line 5
Sangil-dong	37.556635	127.16574	1995	Line 5
Dunchon-dong	37.527796	127.13623	1996	Line 5
OlympicPark	37.516211	127.130924	1996	Line 5
Bangi	37.508756	127.126091	1996	Line 5
Ogeum	37.502236	127.12769	1996	Line 5
Gaerong	37.498053	127.134814	1996	Line 5
Geoyeo	37.493298	127.143729	1996	Line 5
Macheon	37.494992	127.152768	1996	Line 5
Eungam	37.598622	126.915559	2000	Line 6
Yeokchon	37.606072	126.922726	2000	Line 6
Bulgwang	37.610913	126.929496	2000	Line 6
Dokbawi	37.618455	126.932983	2000	Line 6
Yeonsinnae	37.618825	126.921358	2000	Line 6
Gusan	37.61124	126.917233	2000	Line 6
Eungam	37.598622	126.915559	2000	Line 6
Saejeol	37.591422	126.913692	2000	Line 6
Jeungsan	37.584119	126.909894	2000	Line 6
DigitalMediaCity	37.576874	126.901794	2000	Line 6
WorldCupStadium	37.569459	126.899305	2000	Line 6
Mapo-guOffice	37.563511	126.90328	2000	Line 6
Mangwon	37.556014	126.910082	2000	Line 6
Hapjeong	37.549167	126.913611	2000	Line 6
Sangsu	37.547716	126.922946	2000	Line 6
Gwangheungchang	37.547453	126.931996	2000	Line 6
Daeheung	37.547686	126.942247	2000	Line 6
Gongdeok	37.543876	126.95098	2000	Line 6
HyochangPark	37.539269	126.961344	2000	Line 6
Samgakji	37.535543	126.973956	2000	Line 6
Noksapyeong	37.534722	126.986681	2000	Line 6
Itaewon	37.534444	126.993889	2001	Line 6
Hangangjin	37.539826	127.001712	2001	Line 6
Beotigogae	37.548299	127.006942	2001	Line 6
Yaksu	37.554759	127.010611	2001	Line 6
Cheonggu	37.560211	127.013755	2000	Line 6
Sindang	37.565331	127.016217	2000	Line 6
Dongmyo	37.572963	127.015622	2000	Line 6
Changsin	37.579804	127.015214	2000	Line 6
Bomun	37.585283	127.019377	2000	Line 6
Anam	37.586265	127.029049	2000	Line 6
KoreaUniversity	37.590444	127.036291	2000	Line 6
Wolgok	37.601937	127.041478	2000	Line 6
Sangwolgok	37.606225	127.048194	2000	Line 6
Dolgoji	37.610556	127.056445	2000	Line 6
Seokgye	37.614722	127.065278	2000	Line 6
Taereung	37.617631	127.075617	2000	Line 6
Hwarangdae	37.62007	127.084823	2000	Line 6
Bonghwasan	37.617444	127.091147	2000	Line 6
Jangam	37.702583	127.054964	1996	Line 7
Dobongsan	37.689444	127.045833	1996	Line 7
Suraksan	37.677728	127.055302	1996	Line 7
Madeul	37.665113	127.057625	1996	Line 7
Nowon	37.65439	127.060516	1996	Line 7
Junggye	37.645152	127.064019	1996	Line 7
Hagye	37.636363	127.068011	1996	Line 7
Gongneung	37.625559	127.072973	1996	Line 7
Taereung	37.617631	127.075617	1996	Line 7
Meokgol	37.610624	127.077726	1996	Line 7
Junghwa	37.602562	127.07926	1996	Line 7
Sangbong	37.595706	127.08567	1996	Line 7
Myeonmok	37.588489	127.08751	1996	Line 7
Sagajeong	37.580985	127.088503	1996	Line 7
Yongmasan	37.573652	127.086732	1996	Line 7
Junggok	37.56582	127.084259	1996	Line 7
Gunja	37.557124	127.079469	1996	Line 7
ChildrensGrandPark	37.547725	127.074437	1996	Line 7
KonkukUniversity	37.539933	127.070607	1996	Line 7
TtukseomResort	37.531595	127.066745	2000	Line 7
Cheongdam	37.519087	127.05181	2000	Line 7
Gangnam-guOffice	37.517194	127.041253	2000	Line 7
Hak-dong	37.514287	127.03179	2000	Line 7
Nonhyeon	37.511096	127.021356	2000	Line 7
Banpo	37.50816	127.011695	2000	Line 7
ExpressBusTerminal	37.503492	127.004684	2000	Line 7
Naebang	37.487633	126.993563	2000	Line 7
Isu-ChongshinUniversity	37.485394	126.982158	2000	Line 7
Namseong	37.484602	126.971247	2000	Line 7
SoongsilUniversity	37.496274	126.953609	2000	Line 7
Sangdo	37.502845	126.947885	2000	Line 7
Jangseungbaegi	37.504747	126.938851	2000	Line 7
Sindaebangsamgeori	37.499691	126.928214	2000	Line 7
Boramae	37.4999	126.920248	2000	Line 7
Sinpung	37.50007	126.909921	2000	Line 7
Daerim	37.493333	126.895	2000	Line 7
Namguro	37.486331	126.887476	2000	Line 7
GasanDigitalComplex	37.480465	126.88304	2000	Line 7
Cheolsan	37.476097	126.868004	2000	Line 7
Gwangmyeongsageori	37.479252	126.854786	2000	Line 7
Cheonwang	37.486241	126.838961	2000	Line 7
Onsu	37.492171	126.822712	2000	Line 7
Amsa	37.550115	127.127513	1999	Line 8
Cheonho	37.538517	127.123767	1999	Line 8
Gangdong-guOffice	37.530387	127.120453	1999	Line 8
Mongchontoseong	37.5175	127.112417	1999	Line 8
Jamsil	37.513333	127.100278	1996	Line 8
Seokchon	37.505411	127.106946	1996	Line 8
Songpa	37.499785	127.112111	1996	Line 8
GarakMarket	37.493039	127.118281	1996	Line 8
Munjeong	37.485858	127.122486	1996	Line 8
Jangji	37.478042	127.126451	1996	Line 8
Bokjeong	37.470166	127.126676	1996	Line 8
Sanseong	37.457031	127.149909	1996	Line 8
Namhansanseong	37.45158	127.159817	1996	Line 8
Dandaeogeori	37.445085	127.156717	1996	Line 8
Sinheung	37.440958	127.147645	1996	Line 8
Sujin	37.437333	127.140554	1996	Line 8
Moran	37.433572	127.128848	1996	Line 8
Seolleung	37.50445	127.048986	2003	Bundang
Hanti	37.496244	127.052829	2003	Bundang
Dogok	37.490868	127.055351	2003	Bundang
Guryong	37.486888	127.059234	2003	Bundang
Gaepo-dong	37.489063	127.066026	2003	Bundang
Daemosan	37.491362	127.072694	2003	Bundang
Suseo	37.487305	127.101619	1994	Bundang
Bokjeong	37.470166	127.126676	1994	Bundang
KyungwonUniversity	37.447778	127.126944	1994	Bundang
Taepyeong	37.439444	127.128056	1994	Bundang
Moran	37.431389	127.129722	1994	Bundang
Yatap	37.411389	127.078056	1994	Bundang
Imae	37.395731	127.128367	1994	Bundang
Seohyeon	37.385117	127.123294	1994	Bundang
Sunae	37.378553	127.114275	1994	Bundang
Jeongja	37.366278	127.108122	1994	Bundang
Migeum	37.349978	127.10895	1994	Bundang
Ori	37.339775	127.108942	1994	Bundang
Jukjeon	37.324859	127.107477	2004	Bundang
Bojeong	37.316348	127.1079	2004	Bundang
Yongsan	37.53	126.964722	2005	Jungang
Ichon	37.52254	126.97316	2005	Jungang
Seobinggo	37.519569	126.988558	1980	Jungang
Hannam	37.529131	127.008097	1980	Jungang
Oksu	37.54061	127.01888	1985	Jungang
Eungbong	37.550833	127.035183	2005	Jungang
Wangsimni	37.561667	127.037778	2005	Jungang
Cheongnyangni	37.579167	127.046667	2005	Jungang
Hoegi	37.589167	127.057222	2005	Jungang
Jungnang	37.594984	127.076578	2005	Jungang
Sangbong	37.596892	127.085279	2005	Jungang
Mangu	37.5994	127.092161	2005	Jungang
Yangwon	37.60631	127.106951	2005	Jungang
Guri	37.603429	127.143831	2005	Jungang
Donong	37.608767	127.161115	2005	Jungang
Yangjeong	37.60458	127.19423	2005	Jungang
Deokso	37.586576	127.209304	2005	Jungang
Dosim	37.579672	127.222162	2007	Jungang
Paldang	37.547376	127.243438	2007	Jungang
Ungilsan	37.523418	127.296181	2008	Jungang
Yangsu	37.545849	127.328947	2008	Jungang
Sinwon	37.525856	127.372538	2008	Jungang
Guksu	37.51624	127.39943	2008	Jungang
Asin	37.513445	127.444668	2009	Jungang
Obin	37.502338	127.476044	2009	Jungang
Yangpyeong	37.492805	127.49181	2009	Jungang
Wondeok	37.468663	127.547128	2009	Jungang
Yongmun	37.482253	127.594743	2009	Jungang
Gajwa	37.568656	126.91525	2009	Gyeongui
DigitalMediaCity	37.576649	126.901413	2009	Gyeongui
Susaek	37.581761	126.893947	2009	Gyeongui
Hwajeon	37.603525	126.867714	2009	Gyeongui
Gangmae	37.61155	126.843531	2009	Gyeongui
Haengsin	37.611316	126.834117	2009	Gyeongui
Neunggok	37.620499	126.819005	2009	Gyeongui
Daegok	37.630875	126.810533	2009	Gyeongui
Goksan	37.645496	126.801893	2009	Gyeongui
Baengma	37.658295	126.794436	2009	Gyeongui
Pungsan	37.672183	126.786207	2009	Gyeongui
Ilsan	37.682564	126.76873	2009	Gyeongui
Tanhyeon	37.692264	126.761112	2009	Gyeongui
Unjeong	37.725252	126.767045	2009	Gyeongui
Geumneung	37.75647	126.764873	2009	Gyeongui
Geumchon	37.765855	126.773987	2009	Gyeongui
Wollong	37.795034	126.7925	2009	Gyeongui
Paju	37.815221	126.792808	2009	Gyeongui
Munsan	37.854576	126.788031	2009	Gyeongui
Gyeyang	37.571389	126.736389	2007	Incheon
Gyulhyeon	37.566347	126.742653	1999	Incheon
Bakchon	37.554217	126.745347	1999	Incheon
Imhak	37.54505	126.738722	1999	Incheon
Gyesan	37.543331	126.728522	1999	Incheon
GyeonginNationalUniversity	37.538603	126.722675	1999	Incheon
Jakjeon	37.530333	126.722575	1999	Incheon
Galsan	37.517266	126.721501	1999	Incheon
Bupyeong-guOffice	37.508432	126.720557	1999	Incheon
BupyeongMarket	37.498338	126.722231	1999	Incheon
Bupyeong	37.489591	126.723387	1999	Incheon
Dongsu	37.48536	126.718336	1999	Incheon
Bupyeongsamgeori	37.477583	126.710182	1999	Incheon
Ganseogogeori	37.467067	126.707929	1999	Incheon
IncheonCityHall	37.457248	126.702189	1999	Incheon
ArtsCenter	37.449548	126.70102	1999	Incheon
IncheonBusTerminal	37.442266	126.699679	1999	Incheon
MunhakSportsComplex	37.434854	126.698542	1999	Incheon
Seonhak	37.427006	126.698978	1999	Incheon
Sinyeonsu	37.418042	126.693931	1999	Incheon
Woninjae	37.412406	126.687906	1999	Incheon
Dongchun	37.404147	126.680125	1999	Incheon
Dongmak	37.397889	126.673994	1999	Incheon
CampusTown	37.387873	126.661656	2009	Incheon
Technopark	37.382221	126.656302	2009	Incheon
BITZone	37.378086	126.64537	2009	Incheon
UniversityofIncheon	37.386032	126.639447	2009	Incheon
CentralPark	37.393124	126.634705	2009	Incheon
InternationalBusinessDistrict	37.400045	126.630263	2009	Incheon
